{
      "topNavbar": [
        {
          "icon": "menu_book",
          "position": "left",
          "action": "toggleMenu"
        },
        {
          "label": "BrewBuddy",
          "position": "center"
        },
        {
          "icon": "account_circle",
          "position": "right",
          "action": "openLogin",
          "route": "/login"
        },
        {
          "icon": "shopping_cart",
          "position": "right",
          "action": "openCart",
          "route": "/cart"
        }
      ],
  "bottomNavbar": [
    {
      "icon": "home",
      "label": "Home",
      "route": "/home",
      "active": true
    },
    {
      "icon": "restaurant_menu",
      "label": "Menu",
      "route": "/menu"
    },
    {
      "icon": "shopping_cart",
      "label": "Cart",
      "route": "/cart"
    },
    {
      "icon": "inventory",
      "label": "Inventory",
      "route": "/inventory"
    },
    {
      "icon": "location_on",
      "label": "Stores",
      "route": "/stores"
    },
    {
      "icon": "person",
      "label": "Profile",
      "route": "/profile"
    }
  ],
  "stores": [
    {
      "id": "hyderabad-store1",
      "name": "BrewBuddy Gachibowli",
      "address": "Plot No. 1, Hitech City Main Rd, Gachibowli, Hyderabad, Telangana 500032",
      "phone": "+91 40 1111 2222",
      "hours": "Mon-Fri: 8 AM - 9 PM, Sat-Sun: 9 AM - 8 PM"
    },
    {
      "id": "hyderabad-store2",
      "name": "BrewBuddy Jubilee Hills",
      "address": "Road No. 36, Jubilee Hills, Hyderabad, Telangana 500033",
      "phone": "+91 40 3333 4444",
      "hours": "Mon-Sun: 7 AM - 10 PM"
    },
    {
      "id": "hyderabad-store3",
      "name": "BrewBuddy Banjara Hills",
      "address": "Road No. 1, Banjara Hills, Hyderabad, Telangana 500034",
      "phone": "+91 40 5555 6666",
      "hours": "Mon-Fri: 7:30 AM - 9:30 PM, Sat-Sun: 8 AM - 9 PM"
    },
    {
      "id": "hyderabad-store4",
      "name": "BrewBuddy Kondapur",
      "address": "Survey No. 64, Kondapur, Hyderabad, Telangana 500084",
      "phone": "+91 40 7777 8888",
      "hours": "Mon-Sun: 8 AM - 8 PM"
    },
    {
      "id": "hyderabad-store5",
      "name": "BrewBuddy Kothaguda",
      "address": "Botanical Garden Rd, Kothaguda, Hyderabad, Telangana 500084",
      "phone": "+91 40 9999 0000",
      "hours": "Mon-Fri: 8:30 AM - 8:30 PM, Sat-Sun: 9 AM - 7 PM"
    },
    {
      "id": "hyderabad-store6",
      "name": "BrewBuddy Madhapur",
      "address": "Plot No. 2, Hitech City Rd, Madhapur, Hyderabad, Telangana 500081",
      "phone": "+91 40 1234 5678",
      "hours": "Mon-Sun: 7 AM - 9 PM"
    },
    {
      "id": "hyderabad-store7",
      "name": "BrewBuddy Begumpet",
      "address": "S.P. Road, Begumpet, Hyderabad, Telangana 500016",
      "phone": "+91 40 8765 4321",
      "hours": "Mon-Fri: 8 AM - 7 PM, Sat-Sun: 9 AM - 6 PM"
    },
    {
      "id": "hyderabad-store8",
      "name": "BrewBuddy Secunderabad",
      "address": "MG Road, Secunderabad, Telangana 500003",
      "phone": "+91 40 2468 1357",
      "hours": "Mon-Sun: 7:30 AM - 8:30 PM"
    },
    {
      "id": "hyderabad-store9",
      "name": "BrewBuddy Himayatnagar",
      "address": "Street No. 1, Himayatnagar, Hyderabad, Telangana 500029",
      "phone": "+91 40 1357 2468",
      "hours": "Mon-Fri: 9 AM - 8 PM, Sat-Sun: 10 AM - 7 PM"
    },
    {
      "id": "hyderabad-store10",
      "name": "BrewBuddy Ameerpet",
      "address": "Near Ameerpet Metro Station, Hyderabad, Telangana 500016",
      "phone": "+91 40 9876 5432",
      "hours": "Mon-Sun: 8 AM - 9 PM"
    }
  ]
}
